[
  {
    "id": "proj-001",
    "type": "commerce",
    "nom": "Boulangerie Bio du Centre",
    "description": "Rénovation et mise aux normes écologiques d'une boulangerie artisanale",
    "montant": 15000,
    "statut": "termine",
    "lat": 43.6108,
    "lon": 3.8767,
    "adresse": "12 Rue de la Loge, Montpellier",
    "date": "2025-11-15",
    "impact": "20 emplois créés, 100% bio",
    "porteur": "Marie Dupont"
  },
  {
    "id": "proj-002",
    "type": "social",
    "nom": "Espace de Coworking Solidaire",
    "description": "Création d'un tiers-lieu pour entrepreneurs et associations",
    "montant": 45000,
    "statut": "en_cours",
    "lat": 43.6047,
    "lon": 3.8800,
    "adresse": "5 Place de la Comédie, Montpellier",
    "date": "2026-01-10",
    "impact": "50 places de travail, 15 associations hébergées",
    "porteur": "Association Territoire Solidaire"
  },
  {
    "id": "proj-003",
    "type": "environnement",
    "nom": "Jardin Partagé Antigone",
    "description": "Aménagement d'un espace vert participatif de 500m²",
    "montant": 8000,
    "statut": "termine",
    "lat": 43.6080,
    "lon": 3.8900,
    "adresse": "Parc Antigone, Montpellier",
    "date": "2025-09-20",
    "impact": "80 familles participantes, 300kg de légumes/an",
    "porteur": "Collectif Antigone Verte"
  },
  {
    "id": "proj-004",
    "type": "culture",
    "nom": "Bibliothèque Mobile",
    "description": "Véhicule équipé pour apporter la culture dans les quartiers",
    "montant": 25000,
    "statut": "en_cours",
    "lat": 43.5950,
    "lon": 3.8700,
    "adresse": "Quartier Mosson, Montpellier",
    "date": "2026-02-01",
    "impact": "5000 livres, 12 quartiers desservis",
    "porteur": "Médiathèque Municipale"
  },
  {
    "id": "proj-005",
    "type": "commerce",
    "nom": "Épicerie Solidaire Figuerolles",
    "description": "Ouverture d'une épicerie collaborative et accessible",
    "montant": 18000,
    "statut": "termine",
    "lat": 43.6020,
    "lon": 3.8650,
    "adresse": "Rue de Figuerolles, Montpellier",
    "date": "2025-10-05",
    "impact": "200 familles bénéficiaires, -30% sur les prix",
    "porteur": "Coopérative Figuerolles Ensemble"
  },
  {
    "id": "proj-006",
    "type": "social",
    "nom": "Atelier Vélo Participatif",
    "description": "Local pour apprendre à réparer son vélo soi-même",
    "montant": 12000,
    "statut": "planifie",
    "lat": 43.6100,
    "lon": 3.8720,
    "adresse": "Rue de l'Université, Montpellier",
    "date": "2026-03-15",
    "impact": "Formation gratuite, 500 vélos réparés/an",
    "porteur": "Association Vélo Pour Tous"
  },
  {
    "id": "proj-007",
    "type": "education",
    "nom": "Soutien Scolaire Numérique",
    "description": "Équipement informatique pour une salle de soutien scolaire",
    "montant": 9500,
    "statut": "termine",
    "lat": 43.6130,
    "lon": 3.8850,
    "adresse": "Maison de Quartier Port Marianne, Montpellier",
    "date": "2025-12-01",
    "impact": "60 élèves aidés, 15 bénévoles formateurs",
    "porteur": "Association Réussite Pour Tous"
  },
  {
    "id": "proj-008",
    "type": "environnement",
    "nom": "Composteur Collectif Beaux-Arts",
    "description": "Installation de 5 composteurs dans le quartier",
    "montant": 3500,
    "statut": "en_cours",
    "lat": 43.6090,
    "lon": 3.8750,
    "adresse": "Quartier Beaux-Arts, Montpellier",
    "date": "2026-01-25",
    "impact": "100 foyers participants, -2 tonnes de déchets/an",
    "porteur": "Collectif Zéro Déchet Montpellier"
  }
]
